{
    "Bivouacs": [
      {
        "bivouacId": 1,
        "description": "Un bel emplacement en pleine nature",
        "price": 25.00,
        "locationType": "Forêt",
        "fieldType": "Tente",
        "userIdHost": 1,
        "addressId": 1
      },
      {
        "bivouacId": 2,
        "description": "Près d'un lac avec vue imprenable",
        "price": 30.00,
        "locationType": "Lac",
        "fieldType": "Prairie",
        "userIdHost": 2,
        "addressId": 2
      },
      {
        "bivouacId": 3,
        "description": "Un endroit calme pour se ressourcer",
        "price": 20.00,
        "locationType": "Montagne",
        "fieldType": "Terrain",
        "userIdHost": 3,
        "addressId": 3
      },
      {
        "bivouacId": 4,
        "description": "Bivouac près d'une rivière",
        "price": 35.00,
        "locationType": "Rivière",
        "fieldType": "Plage",
        "userIdHost": 1,
        "addressId": 4
      },
      {
        "bivouacId": 5,
        "description": "Parfait pour les amateurs d'étoiles",
        "price": 15.00,
        "locationType": "Champ",
        "fieldType": "Terrain",
        "userIdHost": 2,
        "addressId": 5
      },
      {
        "bivouacId": 6,
        "description": "Endroit isolé pour les aventuriers",
        "price": 40.00,
        "locationType": "Colline",
        "fieldType": "Forêt",
        "userIdHost": 3,
        "addressId": 6
      },
      {
        "bivouacId": 7,
        "description": "Bivouac avec accès à des sentiers",
        "price": 28.00,
        "locationType": "Plaine",
        "fieldType": "Prairie",
        "userIdHost": 1,
        "addressId": 7
      },
      {
        "bivouacId": 8,
        "description": "Idéal pour les familles",
        "price": 50.00,
        "locationType": "Montagne",
        "fieldType": "Terrain",
        "userIdHost": 2,
        "addressId": 8
      }
    ],
    "Addresses": [
      {
        "addressId": 1,
        "number": 12,
        "street": "Rue des Fleurs",
        "city": "Montpellier",
        "postalCode": "34000",
        "latitude": 43.6119,
        "longitude": 3.8767
      },
      {
        "addressId": 2,
        "number": 5,
        "street": "Avenue des Lacs",
        "city": "Grenoble",
        "postalCode": "38000",
        "latitude": 45.1885,
        "longitude": 5.7245
      },
      {
        "addressId": 3,
        "number": 20,
        "street": "Chemin de la Montagne",
        "city": "Annecy",
        "postalCode": "74000",
        "latitude": 45.8993,
        "longitude": 6.1294
      },
      {
        "addressId": 4,
        "number": 8,
        "street": "Rue de la Rivière",
        "city": "Nice",
        "postalCode": "06000",
        "latitude": 43.7102,
        "longitude": 7.2620
      },
      {
        "addressId": 5,
        "number": 3,
        "street": "Route de la Plage",
        "city": "Marseille",
        "postalCode": "13000",
        "latitude": 43.2965,
        "longitude": 5.3698
      },
      {
        "addressId": 6,
        "number": 15,
        "street": "Rue du Colline",
        "city": "Toulouse",
        "postalCode": "31000",
        "latitude": 43.6047,
        "longitude": 1.4442
      },
      {
        "addressId": 7,
        "number": 25,
        "street": "Boulevard de la Prairie",
        "city": "Lyon",
        "postalCode": "69000",
        "latitude": 45.7640,
        "longitude": 4.8357
      },
      {
        "addressId": 8,
        "number": 30,
        "street": "Rue des Étoiles",
        "city": "Clermont-Ferrand",
        "postalCode": "63000",
        "latitude": 45.7772,
        "longitude": 3.0835
      }
    ]
  }
  